{
"type": "FeatureCollection",
"name": "Public_Fishing_Points",
"crs": { "type": "name", "properties": { "name": "urn:ogc:def:crs:OGC:1.3:CRS84" } },
"features": [
{ "type": "Feature", "properties": { "FID": 25, "NAME": "BRIDGEWATER", "ALIAS": null, "WATER_BODY": "LAKE JAMES TAILRACE", "MAINTENANC": "WRC MARION DEPOT", "COUNTY": "BURKE", "CANOE_ACCE": "Y", "PICNIC_ARE": "N", "RESTROOM": "N", "TRASH_CAN": "N", "FISH_FEED": "N", "MOTOR_REST": "N", "ADA_DOCK_T": "N", "ADA_PAVED_": "Y", "ADA_PARK_S": 2, "ADA_NOTES": null, "CAUTION": null, "FIX_PIER_N": 1, "FIX_PIER_T": "T", "FLOAT_PIER": 0, "FLT_PIER_T": null, "PARK_SPACE": 20, "PARK_COVER": "UNPAVED", "LIGHTS": "N", "STREET": null, "CITY": "ALPINE", "STATE": "NC", "ZIP": 0, "LATITUDE": 35.740279483599998, "LONGITUDE": -81.835033803000002, "GAMELAND": null, "BAA": null }, "geometry": { "type": "Point", "coordinates": [ -81.835033803, 35.7402794836 ] } },
{ "type": "Feature", "properties": { "FID": 26, "NAME": "BROUGHTON POND", "ALIAS": null, "WATER_BODY": "BROUGHTON POND", "MAINTENANC": "WRC MORGANTON DEPOT", "COUNTY": "BURKE", "CANOE_ACCE": "Y", "PICNIC_ARE": "N", "RESTROOM": "N", "TRASH_CAN": "N", "FISH_FEED": "N", "MOTOR_REST": "Y", "ADA_DOCK_T": "Y", "ADA_PAVED_": "Y", "ADA_PARK_S": 2, "ADA_NOTES": "PIER HANDRAILS", "CAUTION": null, "FIX_PIER_N": 2, "FIX_PIER_T": "STRAIGHT", "FLOAT_PIER": 1, "FLT_PIER_T": "T", "PARK_SPACE": 34, "PARK_COVER": "UNPAVED", "LIGHTS": "N", "STREET": "5152 WESTERN AVE", "CITY": "MORGANTON", "STATE": "NC", "ZIP": 28655, "LATITUDE": 35.676782146500003, "LONGITUDE": -81.684425318500004, "GAMELAND": "SOUTH MOUNTAINS", "BAA": null }, "geometry": { "type": "Point", "coordinates": [ -81.6844253185, 35.6767821465 ] } },
{ "type": "Feature", "properties": { "FID": 27, "NAME": "WITTENBURG", "ALIAS": null, "WATER_BODY": "LAKE HICKORY", "MAINTENANC": "WRC MORGANTON DEPOT", "COUNTY": "ALEXANDER", "CANOE_ACCE": "N", "PICNIC_ARE": "N", "RESTROOM": "Y", "TRASH_CAN": "N", "FISH_FEED": "N", "MOTOR_REST": "N", "ADA_DOCK_T": "Y", "ADA_PAVED_": "Y", "ADA_PARK_S": 3, "ADA_NOTES": null, "CAUTION": null, "FIX_PIER_N": 0, "FIX_PIER_T": null, "FLOAT_PIER": 1, "FLT_PIER_T": "T", "PARK_SPACE": 28, "PARK_COVER": "PAVED", "LIGHTS": "Y", "STREET": "175 WILDLIFE ACCESS RD", "CITY": "HICKORY", "STATE": "NC", "ZIP": 28601, "LATITUDE": 35.803524500999998, "LONGITUDE": -81.310206170300006, "GAMELAND": null, "BAA": "WITTENBURG" }, "geometry": { "type": "Point", "coordinates": [ -81.3102061703, 35.803524501 ] } },
{ "type": "Feature", "properties": { "FID": 31, "NAME": "BLANTYRE", "ALIAS": null, "WATER_BODY": "FRENCH BROAD RIVER", "MAINTENANC": "WRC BALSAM DEPOT", "COUNTY": "TRANSYLVANIA", "CANOE_ACCE": "Y", "PICNIC_ARE": "N", "RESTROOM": "N", "TRASH_CAN": "N", "FISH_FEED": "N", "MOTOR_REST": "N", "ADA_DOCK_T": "N", "ADA_PAVED_": "N", "ADA_PARK_S": 0, "ADA_NOTES": null, "CAUTION": "BOATS UP TO 14 FT CAN BE LAUNCHED AT THE SITE.", "FIX_PIER_N": 0, "FIX_PIER_T": null, "FLOAT_PIER": 0, "FLT_PIER_T": null, "PARK_SPACE": 18, "PARK_COVER": "UNPAVED", "LIGHTS": "N", "STREET": "120 GROVE BRIDGE RD", "CITY": "HENDERSONVILLE", "STATE": "NC", "ZIP": 28739, "LATITUDE": 35.299162099699998, "LONGITUDE": -82.623206636099994, "GAMELAND": null, "BAA": null }, "geometry": { "type": "Point", "coordinates": [ -82.6232066361, 35.2991620997 ] } },
{ "type": "Feature", "properties": { "FID": 32, "NAME": "COLD MOUNTAIN", "ALIAS": null, "WATER_BODY": "WEST FORK PIGEON RIVER", "MAINTENANC": "WRC BALSAM DEPOT", "COUNTY": "HAYWOOD", "CANOE_ACCE": "N", "PICNIC_ARE": "N", "RESTROOM": "N", "TRASH_CAN": "N", "FISH_FEED": "N", "MOTOR_REST": "N", "ADA_DOCK_T": "N", "ADA_PAVED_": "N", "ADA_PARK_S": 0, "ADA_NOTES": null, "CAUTION": "BANK ACCESS ONLY.", "FIX_PIER_N": 0, "FIX_PIER_T": null, "FLOAT_PIER": 0, "FLT_PIER_T": null, "PARK_SPACE": 20, "PARK_COVER": "UNPAVED", "LIGHTS": "Y", "STREET": "NC HWY 215", "CITY": "CANTON", "STATE": "NC", "ZIP": 0, "LATITUDE": 35.398810299899999, "LONGITUDE": -82.934836414599999, "GAMELAND": "COLD MOUNTAIN", "BAA": null }, "geometry": { "type": "Point", "coordinates": [ -82.9348364146, 35.3988102999 ] } },
{ "type": "Feature", "properties": { "FID": 33, "NAME": "BIG ROCK", "ALIAS": "GREEN RIVER GAME LAND", "WATER_BODY": "GREEN RIVER", "MAINTENANC": "WRC MARION DEPOT", "COUNTY": "POLK", "CANOE_ACCE": "Y", "PICNIC_ARE": "N", "RESTROOM": "N", "TRASH_CAN": "N", "FISH_FEED": "N", "MOTOR_REST": "Y", "ADA_DOCK_T": "N", "ADA_PAVED_": "N", "ADA_PARK_S": 1, "ADA_NOTES": null, "CAUTION": null, "FIX_PIER_N": 0, "FIX_PIER_T": null, "FLOAT_PIER": 0, "FLT_PIER_T": null, "PARK_SPACE": 22, "PARK_COVER": "UNPAVED", "LIGHTS": "N", "STREET": null, "CITY": "MILL SPRING", "STATE": "NC", "ZIP": 0, "LATITUDE": 35.309941854400002, "LONGITUDE": -82.261250029600006, "GAMELAND": "GREEN RIVER", "BAA": null }, "geometry": { "type": "Point", "coordinates": [ -82.2612500296, 35.3099418544 ] } },
{ "type": "Feature", "properties": { "FID": 34, "NAME": "HANGING DOG", "ALIAS": null, "WATER_BODY": "HIWASSEE LAKE", "MAINTENANC": "WRC ANDREWS DEPOT", "COUNTY": "CHEROKEE", "CANOE_ACCE": "Y", "PICNIC_ARE": "Y", "RESTROOM": "Y", "TRASH_CAN": "Y", "FISH_FEED": "N", "MOTOR_REST": "N", "ADA_DOCK_T": "N", "ADA_PAVED_": "N", "ADA_PARK_S": 0, "ADA_NOTES": "NOT ADA YET. USFS IS WORKING ON IT.", "CAUTION": null, "FIX_PIER_N": 1, "FIX_PIER_T": "T", "FLOAT_PIER": 0, "FLT_PIER_T": null, "PARK_SPACE": 20, "PARK_COVER": "UNPAVED", "LIGHTS": "Y", "STREET": "1917 HANGING DOG RD", "CITY": "MURPHY", "STATE": "NC", "ZIP": 28906, "LATITUDE": 35.096293352300002, "LONGITUDE": -84.091300299799997, "GAMELAND": "NANTAHALA", "BAA": "HANGING DOG" }, "geometry": { "type": "Point", "coordinates": [ -84.0913002998, 35.0962933523 ] } },
{ "type": "Feature", "properties": { "FID": 35, "NAME": "TUCKASEGEE", "ALIAS": "HORSE PARK", "WATER_BODY": "TUCKASEGEE RIVER", "MAINTENANC": "WRC BALSAM DEPOT", "COUNTY": "SWAIN", "CANOE_ACCE": "Y", "PICNIC_ARE": "Y", "RESTROOM": "Y", "TRASH_CAN": "N", "FISH_FEED": "N", "MOTOR_REST": "N", "ADA_DOCK_T": "N", "ADA_PAVED_": "N", "ADA_PARK_S": 1, "ADA_NOTES": null, "CAUTION": null, "FIX_PIER_N": 1, "FIX_PIER_T": "T", "FLOAT_PIER": 0, "FLT_PIER_T": null, "PARK_SPACE": 15, "PARK_COVER": "UNPAVED", "LIGHTS": null, "STREET": null, "CITY": "BRYSON CITY", "STATE": "NC", "ZIP": 0, "LATITUDE": 35.421781637000002, "LONGITUDE": -83.460221471300002, "GAMELAND": null, "BAA": null }, "geometry": { "type": "Point", "coordinates": [ -83.4602214713, 35.421781637 ] } },
{ "type": "Feature", "properties": { "FID": 36, "NAME": "JACKRABBIT", "ALIAS": null, "WATER_BODY": "CHATUGE LAKE", "MAINTENANC": "WRC ANDREWS DEPOT", "COUNTY": "CLAY", "CANOE_ACCE": "N", "PICNIC_ARE": "N", "RESTROOM": "Y", "TRASH_CAN": "Y", "FISH_FEED": "N", "MOTOR_REST": "N", "ADA_DOCK_T": "N", "ADA_PAVED_": "N", "ADA_PARK_S": 0, "ADA_NOTES": "NOT ADA YET. USFS IS WORKING ON IT.", "CAUTION": null, "FIX_PIER_N": 1, "FIX_PIER_T": "T", "FLOAT_PIER": 0, "FLT_PIER_T": null, "PARK_SPACE": 25, "PARK_COVER": "UNPAVED", "LIGHTS": "Y", "STREET": "288 JACK RABBIT RD", "CITY": "HAYESVILLE", "STATE": "NC", "ZIP": 28904, "LATITUDE": 35.005419855100001, "LONGITUDE": -83.765521555700005, "GAMELAND": null, "BAA": null }, "geometry": { "type": "Point", "coordinates": [ -83.7655215557, 35.0054198551 ] } },
{ "type": "Feature", "properties": { "FID": 37, "NAME": "LEDFORDS CHAPEL", "ALIAS": null, "WATER_BODY": "CHATUGE LAKE", "MAINTENANC": "WRC ANDREWS DEPOT", "COUNTY": "CLAY", "CANOE_ACCE": "Y", "PICNIC_ARE": "N", "RESTROOM": "Y", "TRASH_CAN": "N", "FISH_FEED": "N", "MOTOR_REST": "N", "ADA_DOCK_T": "Y", "ADA_PAVED_": "Y", "ADA_PARK_S": 1, "ADA_NOTES": null, "CAUTION": null, "FIX_PIER_N": 0, "FIX_PIER_T": null, "FLOAT_PIER": 1, "FLT_PIER_T": "T", "PARK_SPACE": 50, "PARK_COVER": "UNPAVED", "LIGHTS": "N", "STREET": "994 LEDFORD CHAPEL RD", "CITY": "HAYESVILLE", "STATE": "NC", "ZIP": 28904, "LATITUDE": 35.027017025200003, "LONGITUDE": -83.765644953600003, "GAMELAND": null, "BAA": "LEDFORDS CHAPEL" }, "geometry": { "type": "Point", "coordinates": [ -83.7656449536, 35.0270170252 ] } },
{ "type": "Feature", "properties": { "FID": 38, "NAME": "OLD 288", "ALIAS": null, "WATER_BODY": "FONTANA LAKE", "MAINTENANC": "WRC BALSAM DEPOT", "COUNTY": "SWAIN", "CANOE_ACCE": "Y", "PICNIC_ARE": "Y", "RESTROOM": "Y", "TRASH_CAN": "Y", "FISH_FEED": "N", "MOTOR_REST": "N", "ADA_DOCK_T": "Y", "ADA_PAVED_": "Y", "ADA_PARK_S": 2, "ADA_NOTES": null, "CAUTION": null, "FIX_PIER_N": 1, "FIX_PIER_T": "T", "FLOAT_PIER": 0, "FLT_PIER_T": null, "PARK_SPACE": 6, "PARK_COVER": "UNPAVED", "LIGHTS": "Y", "STREET": "2251 OLD NC HWY 288", "CITY": "BRYSON CITY", "STATE": "NC", "ZIP": 28713, "LATITUDE": 35.430077746599999, "LONGITUDE": -83.479543781499999, "GAMELAND": null, "BAA": null }, "geometry": { "type": "Point", "coordinates": [ -83.4795437815, 35.4300777466 ] } },
{ "type": "Feature", "properties": { "FID": 39, "NAME": "QUEENS CREEK", "ALIAS": null, "WATER_BODY": "QUEENS CREEK LAKE", "MAINTENANC": "WRC ANDREWS DEPOT", "COUNTY": "MACON", "CANOE_ACCE": "Y", "PICNIC_ARE": "Y", "RESTROOM": "Y", "TRASH_CAN": "Y", "FISH_FEED": "N", "MOTOR_REST": "N", "ADA_DOCK_T": "N", "ADA_PAVED_": "N", "ADA_PARK_S": 0, "ADA_NOTES": null, "CAUTION": null, "FIX_PIER_N": 1, "FIX_PIER_T": "T", "FLOAT_PIER": 0, "FLT_PIER_T": null, "PARK_SPACE": 4, "PARK_COVER": "UNPAVED", "LIGHTS": "Y", "STREET": null, "CITY": null, "STATE": "NC", "ZIP": 0, "LATITUDE": 35.278102842800003, "LONGITUDE": -83.655381991200002, "GAMELAND": null, "BAA": null }, "geometry": { "type": "Point", "coordinates": [ -83.6553819912, 35.2781028428 ] } },
{ "type": "Feature", "properties": { "FID": 40, "NAME": "SHOOTING CREEK", "ALIAS": null, "WATER_BODY": "CHATUGE LAKE", "MAINTENANC": "WRC ANDREWS DEPOT", "COUNTY": "CLAY", "CANOE_ACCE": "N", "PICNIC_ARE": "N", "RESTROOM": "N", "TRASH_CAN": "N", "FISH_FEED": "N", "MOTOR_REST": "N", "ADA_DOCK_T": "Y", "ADA_PAVED_": "Y", "ADA_PARK_S": 1, "ADA_NOTES": null, "CAUTION": null, "FIX_PIER_N": 2, "FIX_PIER_T": "T", "FLOAT_PIER": 1, "FLT_PIER_T": "T", "PARK_SPACE": 10, "PARK_COVER": "UNPAVED", "LIGHTS": null, "STREET": "NC HWY 175", "CITY": "HAYESVILLE", "STATE": "NC", "ZIP": 0, "LATITUDE": 35.024948357500001, "LONGITUDE": -83.733169295600007, "GAMELAND": null, "BAA": null }, "geometry": { "type": "Point", "coordinates": [ -83.7331692956, 35.0249483575 ] } },
{ "type": "Feature", "properties": { "FID": 41, "NAME": "TSALI", "ALIAS": null, "WATER_BODY": "FONTANA LAKE", "MAINTENANC": "WRC ANDREWS DEPOT", "COUNTY": "SWAIN", "CANOE_ACCE": "Y", "PICNIC_ARE": "N", "RESTROOM": "N", "TRASH_CAN": "N", "FISH_FEED": "N", "MOTOR_REST": "N", "ADA_DOCK_T": "N", "ADA_PAVED_": "N", "ADA_PARK_S": 0, "ADA_NOTES": null, "CAUTION": "BANK FISHING ONLY.", "FIX_PIER_N": 0, "FIX_PIER_T": null, "FLOAT_PIER": 0, "FLT_PIER_T": null, "PARK_SPACE": 30, "PARK_COVER": "UNPAVED", "LIGHTS": "N", "STREET": "8101 NC HWY 28", "CITY": "BRYSON CITY", "STATE": "NC", "ZIP": 28713, "LATITUDE": 35.4047785168, "LONGITUDE": -83.578459119100003, "GAMELAND": null, "BAA": "TSALI" }, "geometry": { "type": "Point", "coordinates": [ -83.5784591191, 35.4047785168 ] } },
{ "type": "Feature", "properties": { "FID": 42, "NAME": "ANDREWS", "ALIAS": null, "WATER_BODY": "VALLEY RIVER", "MAINTENANC": "WRC ANDREWS DEPOT", "COUNTY": "CHEROKEE", "CANOE_ACCE": "N", "PICNIC_ARE": "Y", "RESTROOM": "Y", "TRASH_CAN": "N", "FISH_FEED": "N", "MOTOR_REST": "Y", "ADA_DOCK_T": "Y", "ADA_PAVED_": "Y", "ADA_PARK_S": 6, "ADA_NOTES": null, "CAUTION": null, "FIX_PIER_N": 1, "FIX_PIER_T": "STRAIGHT", "FLOAT_PIER": 0, "FLT_PIER_T": null, "PARK_SPACE": 30, "PARK_COVER": "PAVED", "LIGHTS": "Y", "STREET": null, "CITY": "ANDREWS", "STATE": "NC", "ZIP": 0, "LATITUDE": 35.205688285699999, "LONGITUDE": -83.816575359300003, "GAMELAND": null, "BAA": null }, "geometry": { "type": "Point", "coordinates": [ -83.8165753593, 35.2056882857 ] } },
{ "type": "Feature", "properties": { "FID": 43, "NAME": "LEWELLYN BRANCH", "ALIAS": null, "WATER_BODY": "CHEOAH LAKE", "MAINTENANC": "WRC ANDREWS DEPOT", "COUNTY": "SWAIN", "CANOE_ACCE": "N", "PICNIC_ARE": "N", "RESTROOM": "N", "TRASH_CAN": "N", "FISH_FEED": "N", "MOTOR_REST": "N", "ADA_DOCK_T": "N", "ADA_PAVED_": "N", "ADA_PARK_S": 1, "ADA_NOTES": null, "CAUTION": null, "FIX_PIER_N": 1, "FIX_PIER_T": "T", "FLOAT_PIER": 0, "FLT_PIER_T": null, "PARK_SPACE": 14, "PARK_COVER": "UNPAVED", "LIGHTS": "N", "STREET": "24681 NC HWY 28 N", "CITY": "BRYSON CITY", "STATE": "NC", "ZIP": 28713, "LATITUDE": 35.450993502400003, "LONGITUDE": -83.818880797399999, "GAMELAND": null, "BAA": "LEWELLYN BRANCH" }, "geometry": { "type": "Point", "coordinates": [ -83.8188807974, 35.4509935024 ] } },
{ "type": "Feature", "properties": { "FID": 44, "NAME": "HUFFMAN BRIDGE", "ALIAS": null, "WATER_BODY": "LAKE RHODHISS", "MAINTENANC": "WRC MORGANTON DEPOT", "COUNTY": "BURKE", "CANOE_ACCE": "Y", "PICNIC_ARE": "Y", "RESTROOM": "N", "TRASH_CAN": "Y", "FISH_FEED": "N", "MOTOR_REST": "N", "ADA_DOCK_T": "N", "ADA_PAVED_": "N", "ADA_PARK_S": 2, "ADA_NOTES": null, "CAUTION": "BANK FISHING ONLY.", "FIX_PIER_N": 0, "FIX_PIER_T": null, "FLOAT_PIER": 0, "FLT_PIER_T": null, "PARK_SPACE": 24, "PARK_COVER": "PAVED", "LIGHTS": "Y", "STREET": null, "CITY": "MORGANTON", "STATE": "NC", "ZIP": 0, "LATITUDE": 35.789675043499997, "LONGITUDE": -81.619752788599996, "GAMELAND": null, "BAA": null }, "geometry": { "type": "Point", "coordinates": [ -81.6197527886, 35.7896750435 ] } },
{ "type": "Feature", "properties": { "FID": 45, "NAME": "CONLEY CREEK", "ALIAS": null, "WATER_BODY": "LAKE RHODHISS", "MAINTENANC": "WRC MORGANTON DEPOT", "COUNTY": "CALDWELL", "CANOE_ACCE": "N", "PICNIC_ARE": "N", "RESTROOM": "N", "TRASH_CAN": "Y", "FISH_FEED": "N", "MOTOR_REST": "N", "ADA_DOCK_T": "Y", "ADA_PAVED_": "Y", "ADA_PARK_S": 2, "ADA_NOTES": "DOCK HANDRAILS. PARKING AT THE  RAMP.", "CAUTION": null, "FIX_PIER_N": 1, "FIX_PIER_T": "T", "FLOAT_PIER": 0, "FLT_PIER_T": null, "PARK_SPACE": 20, "PARK_COVER": "PAVED", "LIGHTS": "Y", "STREET": "5475 WATERWORKS RD", "CITY": "GRANITE FALLS", "STATE": "NC", "ZIP": 28630, "LATITUDE": 35.783930595199998, "LONGITUDE": -81.483716692300007, "GAMELAND": null, "BAA": "CONLEY CREEK" }, "geometry": { "type": "Point", "coordinates": [ -81.4837166923, 35.7839305952 ] } },
{ "type": "Feature", "properties": { "FID": 60, "NAME": "PAINTER BRANCH", "ALIAS": null, "WATER_BODY": "LITTLE TENNESSEE RIVER", "MAINTENANC": "WRC ANDREWS DEPOT", "COUNTY": "SWAIN", "CANOE_ACCE": "Y", "PICNIC_ARE": "N", "RESTROOM": "N", "TRASH_CAN": "N", "FISH_FEED": "N", "MOTOR_REST": "N", "ADA_DOCK_T": "N", "ADA_PAVED_": "N", "ADA_PARK_S": 0, "ADA_NOTES": null, "CAUTION": "SLIDE FOR DRIFT BOATS AVAILABLE. MOTORBOATS NOT RECOMMENDED.", "FIX_PIER_N": 0, "FIX_PIER_T": null, "FLOAT_PIER": 0, "FLT_PIER_T": null, "PARK_SPACE": 18, "PARK_COVER": "UNPAVED", "LIGHTS": "N", "STREET": "NEEDMORE RD", "CITY": null, "STATE": "NC", "ZIP": 0, "LATITUDE": 35.341782354300001, "LONGITUDE": -83.527849842799995, "GAMELAND": "NEEDMORE", "BAA": null }, "geometry": { "type": "Point", "coordinates": [ -83.5278498428, 35.3417823543 ] } },
{ "type": "Feature", "properties": { "FID": 61, "NAME": "RATTLESNAKE", "ALIAS": null, "WATER_BODY": "LITTLE TENNESSEE RIVER", "MAINTENANC": "WRC ANDREWS DEPOT", "COUNTY": "SWAIN", "CANOE_ACCE": "Y", "PICNIC_ARE": "N", "RESTROOM": "N", "TRASH_CAN": "N", "FISH_FEED": "N", "MOTOR_REST": "N", "ADA_DOCK_T": "N", "ADA_PAVED_": "N", "ADA_PARK_S": 0, "ADA_NOTES": null, "CAUTION": "SLIDE FOR DRIFT BOATS AVAILABLE. MOTORBOATS NOT RECOMMENDED.", "FIX_PIER_N": 0, "FIX_PIER_T": null, "FLOAT_PIER": 0, "FLT_PIER_T": null, "PARK_SPACE": 18, "PARK_COVER": "UNPAVED", "LIGHTS": "N", "STREET": "NEEDMORE RD", "CITY": null, "STATE": "NC", "ZIP": 0, "LATITUDE": 35.307087328400002, "LONGITUDE": -83.522335663999996, "GAMELAND": "NEEDMORE", "BAA": "<Null>" }, "geometry": { "type": "Point", "coordinates": [ -83.522335664, 35.3070873284 ] } },
{ "type": "Feature", "properties": { "FID": 62, "NAME": "TELLICO CREEK", "ALIAS": null, "WATER_BODY": "LITTLE TENNESSEE RIVER", "MAINTENANC": "WRC FRANKLIN DEPOT", "COUNTY": "MACON", "CANOE_ACCE": "Y", "PICNIC_ARE": "N", "RESTROOM": "N", "TRASH_CAN": "N", "FISH_FEED": "N", "MOTOR_REST": "N", "ADA_DOCK_T": "N", "ADA_PAVED_": "N", "ADA_PARK_S": 0, "ADA_NOTES": null, "CAUTION": "SLIDE FOR DRIFT BOATS AVAILABLE. MOTORBOATS NOT RECOMMENDED.", "FIX_PIER_N": 0, "FIX_PIER_T": null, "FLOAT_PIER": 0, "FLT_PIER_T": null, "PARK_SPACE": 4, "PARK_COVER": "UNPAVED", "LIGHTS": "N", "STREET": "NEEDMORE RD", "CITY": null, "STATE": "NC", "ZIP": 0, "LATITUDE": 35.288864633400003, "LONGITUDE": -83.491481401200005, "GAMELAND": "NEEDMORE", "BAA": "<Null>" }, "geometry": { "type": "Point", "coordinates": [ -83.4914814012, 35.2888646334 ] } },
{ "type": "Feature", "properties": { "FID": 64, "NAME": "FISH TOP", "ALIAS": "GREEN RIVER GAME LAND", "WATER_BODY": "GREEN RIVER", "MAINTENANC": "WRC MARION DEPOT", "COUNTY": "POLK", "CANOE_ACCE": null, "PICNIC_ARE": null, "RESTROOM": null, "TRASH_CAN": null, "FISH_FEED": null, "MOTOR_REST": null, "ADA_DOCK_T": null, "ADA_PAVED_": null, "ADA_PARK_S": 0, "ADA_NOTES": null, "CAUTION": null, "FIX_PIER_N": 0, "FIX_PIER_T": null, "FLOAT_PIER": 0, "FLT_PIER_T": null, "PARK_SPACE": 0, "PARK_COVER": null, "LIGHTS": null, "STREET": "GREEN RIVER RD", "CITY": null, "STATE": "NC", "ZIP": 0, "LATITUDE": 35.264207248600002, "LONGITUDE": -82.324735172900006, "GAMELAND": "GREEN RIVER", "BAA": null }, "geometry": { "type": "Point", "coordinates": [ -82.3247351729, 35.2642072486 ] } },
{ "type": "Feature", "properties": { "FID": 65, "NAME": "GRAYS BRIDGE", "ALIAS": "BROAD RIVER", "WATER_BODY": "BROAD RIVER", "MAINTENANC": "WRC MARION DEPOT", "COUNTY": "RUTHERFORD", "CANOE_ACCE": "Y", "PICNIC_ARE": "N", "RESTROOM": "N", "TRASH_CAN": "N", "FISH_FEED": "N", "MOTOR_REST": "N", "ADA_DOCK_T": "N", "ADA_PAVED_": "N", "ADA_PARK_S": 0, "ADA_NOTES": null, "CAUTION": null, "FIX_PIER_N": 0, "FIX_PIER_T": null, "FLOAT_PIER": 0, "FLT_PIER_T": null, "PARK_SPACE": 6, "PARK_COVER": "UNPAVED", "LIGHTS": "N", "STREET": "520 GRAYS RD", "CITY": "RUTHERFORDTON", "STATE": "NC", "ZIP": 28139, "LATITUDE": 35.328423458700001, "LONGITUDE": -82.026434920300005, "GAMELAND": null, "BAA": null }, "geometry": { "type": "Point", "coordinates": [ -82.0264349203, 35.3284234587 ] } },
{ "type": "Feature", "properties": { "FID": 66, "NAME": "WILSON CREEK MILL", "ALIAS": "LUTZ TRACT", "WATER_BODY": "WILSON CREEK", "MAINTENANC": "WRC MORGANTON DEPOT", "COUNTY": "CALDWELL", "CANOE_ACCE": "N", "PICNIC_ARE": "N", "RESTROOM": "N", "TRASH_CAN": "N", "FISH_FEED": "N", "MOTOR_REST": "N", "ADA_DOCK_T": "N", "ADA_PAVED_": "N", "ADA_PARK_S": 1, "ADA_NOTES": "UPAVED ADA PARKING SPACE, PATH TO PIER", "CAUTION": null, "FIX_PIER_N": 1, "FIX_PIER_T": "STRAIGHT", "FLOAT_PIER": 0, "FLT_PIER_T": null, "PARK_SPACE": 20, "PARK_COVER": "UNPAVED", "LIGHTS": "N", "STREET": "BROWN MOUNTAIN BEACH RD", "CITY": "MORTIMER", "STATE": "NC", "ZIP": 28645, "LATITUDE": 250795.7733, "LONGITUDE": 360853.4291, "GAMELAND": "PISGAH WRC", "BAA": null }, "geometry": { "type": "Point", "coordinates": [ -81.7586213785, 35.9796186217 ] } },
{ "type": "Feature", "properties": { "FID": 70, "NAME": "WOLF SONG RIDGE", "ALIAS": null, "WATER_BODY": "NORTH TOE RIVER", "MAINTENANC": "WRC BURNSVILLE DEPOT", "COUNTY": "YANCEY", "CANOE_ACCE": null, "PICNIC_ARE": null, "RESTROOM": null, "TRASH_CAN": null, "FISH_FEED": null, "MOTOR_REST": null, "ADA_DOCK_T": null, "ADA_PAVED_": null, "ADA_PARK_S": 0, "ADA_NOTES": null, "CAUTION": null, "FIX_PIER_N": 0, "FIX_PIER_T": null, "FLOAT_PIER": 0, "FLT_PIER_T": null, "PARK_SPACE": 0, "PARK_COVER": null, "LIGHTS": null, "STREET": null, "CITY": "GREEN MOUNTAIN", "STATE": "NC", "ZIP": 0, "LATITUDE": 35.993505318300002, "LONGITUDE": -82.249333476100006, "GAMELAND": null, "BAA": null }, "geometry": { "type": "Point", "coordinates": [ -82.2493334761, 35.9935053183 ] } },
{ "type": "Feature", "properties": { "FID": 71, "NAME": "RED HILL", "ALIAS": "HWY 197", "WATER_BODY": "NORTH TOE RIVER", "MAINTENANC": "WRC BURNSVILLE DEPOT", "COUNTY": "YANCEY", "CANOE_ACCE": null, "PICNIC_ARE": null, "RESTROOM": null, "TRASH_CAN": null, "FISH_FEED": null, "MOTOR_REST": null, "ADA_DOCK_T": null, "ADA_PAVED_": null, "ADA_PARK_S": 0, "ADA_NOTES": null, "CAUTION": null, "FIX_PIER_N": 0, "FIX_PIER_T": null, "FLOAT_PIER": 0, "FLT_PIER_T": null, "PARK_SPACE": 0, "PARK_COVER": null, "LIGHTS": null, "STREET": null, "CITY": null, "STATE": "NC", "ZIP": 0, "LATITUDE": 36.013056721600002, "LONGITUDE": -82.229903939099998, "GAMELAND": null, "BAA": null }, "geometry": { "type": "Point", "coordinates": [ -82.2299039391, 36.0130567216 ] } },
{ "type": "Feature", "properties": { "FID": 72, "NAME": "SAWMILL CREEK", "ALIAS": null, "WATER_BODY": "LITTLE TENNESSEE RIVER", "MAINTENANC": "WRC ANDREWS DEPOT", "COUNTY": "SWAIN", "CANOE_ACCE": "N", "PICNIC_ARE": "N", "RESTROOM": "N", "TRASH_CAN": "N", "FISH_FEED": "N", "MOTOR_REST": "N", "ADA_DOCK_T": "N", "ADA_PAVED_": "N", "ADA_PARK_S": 0, "ADA_NOTES": null, "CAUTION": "BANK ACCESS ONLY.", "FIX_PIER_N": 0, "FIX_PIER_T": null, "FLOAT_PIER": 0, "FLT_PIER_T": null, "PARK_SPACE": 20, "PARK_COVER": "UNPAVED", "LIGHTS": "N", "STREET": "LOWER SAWMILL CREEK RD", "CITY": "BRYSON CITY", "STATE": "NC", "ZIP": 0, "LATITUDE": 35.356434398499999, "LONGITUDE": -83.506333818900004, "GAMELAND": "NEEDMORE", "BAA": null }, "geometry": { "type": "Point", "coordinates": [ -83.5063108767, 35.3562308791 ] } },
{ "type": "Feature", "properties": { "FID": 73, "NAME": "BRUSH CREEK", "ALIAS": null, "WATER_BODY": "LITTLE TENNESSEE RIVER", "MAINTENANC": "WRC ANDREWS DEPOT", "COUNTY": "SWAIN", "CANOE_ACCE": "Y", "PICNIC_ARE": "N", "RESTROOM": "N", "TRASH_CAN": "N", "FISH_FEED": "N", "MOTOR_REST": "N", "ADA_DOCK_T": "N", "ADA_PAVED_": "N", "ADA_PARK_S": 0, "ADA_NOTES": null, "CAUTION": null, "FIX_PIER_N": 0, "FIX_PIER_T": null, "FLOAT_PIER": 0, "FLT_PIER_T": null, "PARK_SPACE": 6, "PARK_COVER": "UNPAVED", "LIGHTS": "N", "STREET": "LOWER NEEDMORE RD", "CITY": null, "STATE": "NC", "ZIP": 0, "LATITUDE": 35.3276593553, "LONGITUDE": -83.513783642800007, "GAMELAND": "NEEDMORE", "BAA": null }, "geometry": { "type": "Point", "coordinates": [ -83.5137836428, 35.3276593553 ] } },
{ "type": "Feature", "properties": { "FID": 77, "NAME": "WISHONS FISHING HOLE", "ALIAS": "WISHON'S FISHIN' HOLE", "WATER_BODY": "NANTAHALA RIVER", "MAINTENANC": "WRC ANDREWS DEPOT", "COUNTY": "MACON", "CANOE_ACCE": "Y", "PICNIC_ARE": "N", "RESTROOM": "N", "TRASH_CAN": "N", "FISH_FEED": "N", "MOTOR_REST": "Y", "ADA_DOCK_T": "Y", "ADA_PAVED_": "Y", "ADA_PARK_S": 2, "ADA_NOTES": null, "CAUTION": null, "FIX_PIER_N": 1, "FIX_PIER_T": "STRAIGHT", "FLOAT_PIER": 0, "FLT_PIER_T": null, "PARK_SPACE": 10, "PARK_COVER": "UNPAVED", "LIGHTS": "N", "STREET": "27540 WAYAH RD", "CITY": "TOPTON", "STATE": "NC", "ZIP": 28781, "LATITUDE": 35.269728518299999, "LONGITUDE": -83.675610252699997, "GAMELAND": null, "BAA": null }, "geometry": { "type": "Point", "coordinates": [ -83.6756102527, 35.2697285183 ] } },
{ "type": "Feature", "properties": { "FID": 80, "NAME": "LENA DAVIS LANDING", "ALIAS": null, "WATER_BODY": "TUCKASEGEE RIVER", "MAINTENANC": "WRC BALSAM DEPOT", "COUNTY": "JACKSON", "CANOE_ACCE": "N", "PICNIC_ARE": "N", "RESTROOM": "Y", "TRASH_CAN": "N", "FISH_FEED": "N", "MOTOR_REST": "N", "ADA_DOCK_T": "N", "ADA_PAVED_": "Y", "ADA_PARK_S": 3, "ADA_NOTES": "3 PARKING SPACES, PAVED WALKWAY", "CAUTION": null, "FIX_PIER_N": 0, "FIX_PIER_T": null, "FLOAT_PIER": 0, "FLT_PIER_T": null, "PARK_SPACE": 18, "PARK_COVER": "PAVED", "LIGHTS": "N", "STREET": "111 CASEY RD", "CITY": "CULLOWHEE", "STATE": "NC", "ZIP": 28723, "LATITUDE": 35.314820092300003, "LONGITUDE": -83.175730595900006, "GAMELAND": null, "BAA": null }, "geometry": { "type": "Point", "coordinates": [ -83.1757305959, 35.3148200923 ] } },
{ "type": "Feature", "properties": { "FID": 81, "NAME": "ROCKY BRANCH", "ALIAS": null, "WATER_BODY": "NANTAHALA LAKE", "MAINTENANC": "WRC ANDREWS DEPOT", "COUNTY": "MACON", "CANOE_ACCE": "Y", "PICNIC_ARE": "N", "RESTROOM": "Y", "TRASH_CAN": "N", "FISH_FEED": "N", "MOTOR_REST": "N", "ADA_DOCK_T": "Y", "ADA_PAVED_": "Y", "ADA_PARK_S": 3, "ADA_NOTES": null, "CAUTION": null, "FIX_PIER_N": 1, "FIX_PIER_T": "T", "FLOAT_PIER": 0, "FLT_PIER_T": null, "PARK_SPACE": 37, "PARK_COVER": "PAVED", "LIGHTS": null, "STREET": "16102 WAYAH RED", "CITY": "AQUONE", "STATE": "NC", "ZIP": 28781, "LATITUDE": 35.181438010999997, "LONGITUDE": -83.656846356200006, "GAMELAND": null, "BAA": "ROCKY BRANCH" }, "geometry": { "type": "Point", "coordinates": [ -83.6568463562, 35.181438011 ] } },
{ "type": "Feature", "properties": { "FID": 82, "NAME": "BEAR CREEK", "ALIAS": "BEAR LAKE", "WATER_BODY": "BEAR CREEK LAKE", "MAINTENANC": "WRC BALSAM DEPOT", "COUNTY": "JACKSON", "CANOE_ACCE": "Y", "PICNIC_ARE": "N", "RESTROOM": "Y", "TRASH_CAN": "N", "FISH_FEED": null, "MOTOR_REST": "N", "ADA_DOCK_T": "Y", "ADA_PAVED_": "Y", "ADA_PARK_S": 2, "ADA_NOTES": "PAVED WALKWAY, DOCK HANDRAILS", "CAUTION": null, "FIX_PIER_N": 1, "FIX_PIER_T": null, "FLOAT_PIER": 0, "FLT_PIER_T": null, "PARK_SPACE": 2, "PARK_COVER": "PAVED", "LIGHTS": "Y", "STREET": "664 BEAR LAKE RD", "CITY": "TUCKASEGEE", "STATE": "NC", "ZIP": 28783, "LATITUDE": 35.244006374400001, "LONGITUDE": -83.064087241899998, "GAMELAND": null, "BAA": "BEAR CREEK" }, "geometry": { "type": "Point", "coordinates": [ -83.0639526405, 35.2432474389 ] } },
{ "type": "Feature", "properties": { "FID": 83, "NAME": "POWERHOUSE", "ALIAS": "POWERHOUSE SITE", "WATER_BODY": "GLENVILLE LAKE\/THORPE LAKE", "MAINTENANC": "WRC FRANKLIN DEPOT", "COUNTY": "JACKSON", "CANOE_ACCE": "N", "PICNIC_ARE": "N", "RESTROOM": "Y", "TRASH_CAN": "N", "FISH_FEED": null, "MOTOR_REST": "N", "ADA_DOCK_T": "Y", "ADA_PAVED_": "Y", "ADA_PARK_S": 1, "ADA_NOTES": null, "CAUTION": null, "FIX_PIER_N": 1, "FIX_PIER_T": "T", "FLOAT_PIER": 0, "FLT_PIER_T": null, "PARK_SPACE": 4, "PARK_COVER": "UNPAVED", "LIGHTS": "Y", "STREET": "1371 PINE CREEK RD", "CITY": "CULLOWHEE", "STATE": "NC", "ZIP": 28723, "LATITUDE": 35.195170153900001, "LONGITUDE": -83.149975609199998, "GAMELAND": null, "BAA": "POWERHOUSE SITE" }, "geometry": { "type": "Point", "coordinates": [ -83.1499756092, 35.1951701539 ] } },
{ "type": "Feature", "properties": { "FID": 84, "NAME": "LAKE EMORY", "ALIAS": null, "WATER_BODY": "LITTLE TENNESSEE RIVER", "MAINTENANC": "WRC FRANKLIN DEPOT", "COUNTY": "MACON", "CANOE_ACCE": "Y", "PICNIC_ARE": "N", "RESTROOM": "N", "TRASH_CAN": "N", "FISH_FEED": null, "MOTOR_REST": null, "ADA_DOCK_T": "Y", "ADA_PAVED_": "Y", "ADA_PARK_S": 3, "ADA_NOTES": null, "CAUTION": null, "FIX_PIER_N": 0, "FIX_PIER_T": null, "FLOAT_PIER": 0, "FLT_PIER_T": null, "PARK_SPACE": 0, "PARK_COVER": "UNPAVED", "LIGHTS": "N", "STREET": "426 LAKESIDE DR", "CITY": "FRANKLIN", "STATE": "NC", "ZIP": 28734, "LATITUDE": 35.189739300399999, "LONGITUDE": -83.378465328900006, "GAMELAND": null, "BAA": "LAKE EMORY" }, "geometry": { "type": "Point", "coordinates": [ -83.3777844962, 35.1892544308 ] } },
{ "type": "Feature", "properties": { "FID": 85, "NAME": "BRYSON TRAILRACE", "ALIAS": null, "WATER_BODY": "NANTAHALA RIVER", "MAINTENANC": "WRC BALSAM DEPOT", "COUNTY": "MACON", "CANOE_ACCE": null, "PICNIC_ARE": null, "RESTROOM": null, "TRASH_CAN": null, "FISH_FEED": null, "MOTOR_REST": null, "ADA_DOCK_T": "Y", "ADA_PAVED_": "Y", "ADA_PARK_S": 1, "ADA_NOTES": null, "CAUTION": null, "FIX_PIER_N": 0, "FIX_PIER_T": null, "FLOAT_PIER": 0, "FLT_PIER_T": null, "PARK_SPACE": 5, "PARK_COVER": "PAVED", "LIGHTS": null, "STREET": null, "CITY": null, "STATE": "NC", "ZIP": 0, "LATITUDE": 35.446218177900001, "LONGITUDE": -83.375250053900004, "GAMELAND": null, "BAA": null }, "geometry": { "type": "Point", "coordinates": [ -83.3752500539, 35.4462181779 ] } },
{ "type": "Feature", "properties": { "FID": 86, "NAME": "MISSION DAM", "ALIAS": null, "WATER_BODY": "HIWASSEE RIVER", "MAINTENANC": "WRC ANDREWS DEPOT", "COUNTY": "CLAY", "CANOE_ACCE": null, "PICNIC_ARE": null, "RESTROOM": null, "TRASH_CAN": null, "FISH_FEED": null, "MOTOR_REST": null, "ADA_DOCK_T": null, "ADA_PAVED_": null, "ADA_PARK_S": 0, "ADA_NOTES": null, "CAUTION": null, "FIX_PIER_N": 0, "FIX_PIER_T": null, "FLOAT_PIER": 0, "FLT_PIER_T": null, "PARK_SPACE": 0, "PARK_COVER": null, "LIGHTS": null, "STREET": null, "CITY": null, "STATE": "NC", "ZIP": 0, "LATITUDE": 35.066492212500002, "LONGITUDE": -83.926513971600002, "GAMELAND": null, "BAA": null }, "geometry": { "type": "Point", "coordinates": [ -83.9265139716, 35.0664922125 ] } },
{ "type": "Feature", "properties": { "FID": 87, "NAME": "COXE ROAD", "ALIAS": null, "WATER_BODY": "BROAD RIVER", "MAINTENANC": "WRC MARION DEPOT", "COUNTY": "RUTHERFORD", "CANOE_ACCE": "Y", "PICNIC_ARE": "N", "RESTROOM": "N", "TRASH_CAN": "N", "FISH_FEED": "N", "MOTOR_REST": null, "ADA_DOCK_T": "N", "ADA_PAVED_": "Y", "ADA_PARK_S": 0, "ADA_NOTES": null, "CAUTION": null, "FIX_PIER_N": 0, "FIX_PIER_T": null, "FLOAT_PIER": 0, "FLT_PIER_T": null, "PARK_SPACE": 6, "PARK_COVER": "UNPAVED", "LIGHTS": "N", "STREET": null, "CITY": null, "STATE": "NC", "ZIP": 0, "LATITUDE": 35.292611261600001, "LONGITUDE": -81.991206728099996, "GAMELAND": null, "BAA": null }, "geometry": { "type": "Point", "coordinates": [ -81.9912067281, 35.2926112616 ] } },
{ "type": "Feature", "properties": { "FID": 88, "NAME": "PENLAND", "ALIAS": null, "WATER_BODY": "NORTH TOE RIVER", "MAINTENANC": "WRC BURNSVILLE DEPOT", "COUNTY": "MITCHELL", "CANOE_ACCE": "Y", "PICNIC_ARE": "N", "RESTROOM": "N", "TRASH_CAN": "N", "FISH_FEED": "N", "MOTOR_REST": "N", "ADA_DOCK_T": "N", "ADA_PAVED_": "N", "ADA_PARK_S": 0, "ADA_NOTES": null, "CAUTION": null, "FIX_PIER_N": 0, "FIX_PIER_T": null, "FLOAT_PIER": 0, "FLT_PIER_T": null, "PARK_SPACE": 3, "PARK_COVER": "UNPAVED", "LIGHTS": "N", "STREET": null, "CITY": null, "STATE": "NC", "ZIP": 0, "LATITUDE": 35.929305911199997, "LONGITUDE": -82.1128813726, "GAMELAND": null, "BAA": null }, "geometry": { "type": "Point", "coordinates": [ -82.1128813726, 35.9293059112 ] } },
{ "type": "Feature", "properties": { "FID": 89, "NAME": "TANASEE", "ALIAS": null, "WATER_BODY": "TANASEE CREEK LAKE", "MAINTENANC": "WRC BALSAM DEPOT", "COUNTY": "JACKSON", "CANOE_ACCE": "Y", "PICNIC_ARE": "N", "RESTROOM": "N", "TRASH_CAN": "N", "FISH_FEED": "N", "MOTOR_REST": "N", "ADA_DOCK_T": null, "ADA_PAVED_": null, "ADA_PARK_S": 0, "ADA_NOTES": null, "CAUTION": "SHALLOW-DRAFT VESSELS RECOMMENDED DURING LOW WATER LEVELS.", "FIX_PIER_N": 0, "FIX_PIER_T": null, "FLOAT_PIER": 0, "FLT_PIER_T": null, "PARK_SPACE": 6, "PARK_COVER": "UNPAVED", "LIGHTS": "N", "STREET": "14280 CANADA RD", "CITY": "TUCKASEGEE", "STATE": "NC", "ZIP": 28783, "LATITUDE": 35.2161720589, "LONGITUDE": -82.987800834200002, "GAMELAND": null, "BAA": null }, "geometry": { "type": "Point", "coordinates": [ -82.9878008342, 35.2161720589 ] } },
{ "type": "Feature", "properties": { "FID": 90, "NAME": "TUCKASEGEE POWERHOUSE", "ALIAS": null, "WATER_BODY": "WEST FORK TUCKASEGEE RIVER", "MAINTENANC": "WRC BALSAM DEPOT", "COUNTY": "JACKSON", "CANOE_ACCE": "Y", "PICNIC_ARE": "N", "RESTROOM": "N", "TRASH_CAN": "N", "FISH_FEED": "N", "MOTOR_REST": "N", "ADA_DOCK_T": null, "ADA_PAVED_": null, "ADA_PARK_S": 0, "ADA_NOTES": null, "CAUTION": "SHALLOW-DRAFT VESSELS RECOMMENDED YEAR-ROUND", "FIX_PIER_N": 0, "FIX_PIER_T": null, "FLOAT_PIER": 0, "FLT_PIER_T": null, "PARK_SPACE": 10, "PARK_COVER": "UNPAVED", "LIGHTS": "N", "STREET": "41 DISNEY LN", "CITY": "TUCKASEGEE", "STATE": "NC", "ZIP": 28783, "LATITUDE": 35.247660292, "LONGITUDE": -83.128268911600003, "GAMELAND": null, "BAA": null }, "geometry": { "type": "Point", "coordinates": [ -83.1282689116, 35.247660292 ] } },
{ "type": "Feature", "properties": { "FID": 91, "NAME": "HAYESVILLE", "ALIAS": null, "WATER_BODY": "HIWASSEE RIVER", "MAINTENANC": "WRC ANDREWS DEPOT", "COUNTY": "CLAY", "CANOE_ACCE": "Y", "PICNIC_ARE": "N", "RESTROOM": "N", "TRASH_CAN": "N", "FISH_FEED": "N", "MOTOR_REST": "Y", "ADA_DOCK_T": "N", "ADA_PAVED_": "Y", "ADA_PARK_S": 1, "ADA_NOTES": null, "CAUTION": "SHALLOW-DRAFT VESSELS RECOMMENDED YEAR-ROUND", "FIX_PIER_N": 0, "FIX_PIER_T": null, "FLOAT_PIER": 0, "FLT_PIER_T": null, "PARK_SPACE": 0, "PARK_COVER": "PAVED", "LIGHTS": "N", "STREET": "17 RIVER GLEN LN", "CITY": "HAYESVILLE", "STATE": "NC", "ZIP": 28904, "LATITUDE": 35.055984938599998, "LONGITUDE": -83.816206878900005, "GAMELAND": null, "BAA": null }, "geometry": { "type": "Point", "coordinates": [ -83.8162068789, 35.0559849386 ] } },
{ "type": "Feature", "properties": { "FID": 93, "NAME": "COLD MOUNTAIN 2", "ALIAS": "SHOOTING RANGE HWY 215", "WATER_BODY": "WEST FORK PIGEON RIVER (LEFT PRONG)", "MAINTENANC": "WRC BALSAM DEPOT", "COUNTY": "HAYWOOD", "CANOE_ACCE": "N", "PICNIC_ARE": "N", "RESTROOM": "N", "TRASH_CAN": "N", "FISH_FEED": "N", "MOTOR_REST": "N", "ADA_DOCK_T": "N", "ADA_PAVED_": "N", "ADA_PARK_S": 0, "ADA_NOTES": null, "CAUTION": "BANK ACCESS ONLY.", "FIX_PIER_N": 0, "FIX_PIER_T": null, "FLOAT_PIER": 0, "FLT_PIER_T": null, "PARK_SPACE": 20, "PARK_COVER": "UNPAVED", "LIGHTS": "Y", "STREET": "NC HWY 215", "CITY": "CANTON", "STATE": "NC", "ZIP": 0, "LATITUDE": 35.382516721999998, "LONGITUDE": -82.939638988599995, "GAMELAND": "COLD MOUNTAIN", "BAA": null }, "geometry": { "type": "Point", "coordinates": [ -82.9396389886, 35.382516722 ] } },
{ "type": "Feature", "properties": { "FID": 94, "NAME": "CANE RIVER PARK", "ALIAS": null, "WATER_BODY": "CANE RIVER", "MAINTENANC": "WRC BURNSVILLE DEPOT", "COUNTY": "YANCEY", "CANOE_ACCE": "N", "PICNIC_ARE": "N", "RESTROOM": "N", "TRASH_CAN": "N", "FISH_FEED": "N", "MOTOR_REST": "N", "ADA_DOCK_T": "N", "ADA_PAVED_": "Y", "ADA_PARK_S": 1, "ADA_NOTES": "1 TRVL PARKING SPACE", "CAUTION": null, "FIX_PIER_N": 1, "FIX_PIER_T": "T", "FLOAT_PIER": 0, "FLT_PIER_T": null, "PARK_SPACE": 6, "PARK_COVER": "UNPAVED", "LIGHTS": "N", "STREET": "258 WHITTINGTON RD", "CITY": "BURNSVILLE", "STATE": "NC", "ZIP": 28714, "LATITUDE": 35.915054914199999, "LONGITUDE": -82.382434148300007, "GAMELAND": null, "BAA": null }, "geometry": { "type": "Point", "coordinates": [ -82.3824341483, 35.9150549142 ] } }
]
}
